[
  {
    "city": "London",
    "latitude": 51.5287718 ,
    "longitude": -0.2416814
  },
  {
    "city": "Tokyo",
    "latitude": 35.6735408,
    "longitude": 139.5703032
  },
  {
    "city": "San Francisco",
    "latitude": 37.757815,
    "longitude":-122.5076401
  },
  {
    "city": "Los Angeles",
    "latitude": 34.0207305 ,
    "longitude":-118.6919209
  },
  {
    "city": "Accra",
    "latitude": 5.5913754,
    "longitude": -0.24977
  },
  {
    "city": "Sydney",
    "latitude": -33.8473567,
    "longitude":150.6517901
  },
  {
    "city": "Barcelona",
    "latitude":41.3948976,
    "longitude":2.0787279
  },
  {
    "city": "Buenos Aires",
    "latitude":-34.6156625,
    "longitude":-58.5033383
  }
]
