[{
      "key": "1",
        "title": "Dishoom",
        "Address":"222 Moxon Street, London UK",
        "rating": 4.5,
        "stake":200,
        "stake_time": "12/06/2018",
        "latitude": 51.5198804,
        "longitude": -0.1553565,
        "description": "Indian street food with an Iranian twist, from Bombay with love.",
        "category": "Food",
      },
      {
        "key": "2",
        "title": "Regents Park",
        "Address":"222 Moxon Street, London UK",
        "rating": 4.5,
        "stake":200,
        "stake_time": "12/06/2018",
        "latitude": 51.5198791,
        "longitude": -0.1707259,
        "description": "Check out the Open Air theater and stop by a cafe for an afternoon jolt.",
        "category": "Outdoor Leisure",
      },
      {
        "key": "3",
          "title": "Shoreditch Street Art",
          "Address":"Shoreditch High Street, London UK",
          "rating": 4.8,
          "stake":200,
          "stake_time": "12/06/2018",
          "latitude": 51.5242898,
          "longitude": -0.0794362,
          "description": "Find as many tour groups as you can and listen in on what they say.",
          "category": "Art",
        },
        {
          "key": "4",
          "title": "Museum of Happiness",
          "Address":"55 Leonard Street, London UK",
          "rating": 4.6,
          "stake":"N/A",
          "stake_time": "N/A",
          "latitude": 51.5246184,
          "longitude": -0.0856621,
          "description": "Get a handle on the ineffible and apply science to the abstract.",
          "category": "Art",
        },
        {
          "key": "5",
          "title": "Queen of Hoxton",
          "Address":"1 Curtain Road, London UK",
          "rating": 4.6,
          "stake":"N/A",
          "stake_time": "N/A",
          "latitude": 51.5221383,
          "longitude": -0.083429,
          "description": "Multiple floors, a photo booth, and a spacey roof top with lots of weird art.",
          "category": "Night Life",
        },
          {
            "key": "6",
            "title": "7 Dials Shopping",
            "Address":"Mercer and Earlham Street Intersection, London, UK",
            "rating": 4.8,
            "stake":200,
            "stake_time": "12/06/2018",
            "latitude": 51.5137545,
            "longitude": -0.1291032,
            "description": "Tons of shops, adorable cafes, and cobble streets on streets that look like a dial from above.",
            "cateogory": "Shopping",
          },
          {
            "key": "7",
            "title": "Cafe Nero",
            "Address":"30 Monmouth Street, London UK",
            "rating": 4.6,
            "stake":"N/A",
            "stake_time": "N/A",
            "latitude": 51.5139391,
            "longitude":-0.1338178,
            "description": "Bring your coffee snob, they wont be dissapointed",
            "category": "Cafe",
      },
{
  "key": "8",
            "title": "Falling Shopper",
            "Address":"Bruton Street, London, UK",
            "rating": 4.9,
            "stake":200,
            "stake_time": "12/06/2018",
            "latitude":51.5105879,
            "longitude": -0.1467792,
            "description": "It might take you a while to find, get ready to wander.",
            "category": "Art",
          },{
            "key": "9",
            "title": "Always Fall",
            "Address":"Farrington Road, London UK",
            "rating": 4.6,
            "stake":"N/A",
            "stake_time": "N/A",
            "latitude": 51.5231157,
            "longitude": -0.1101223,
            "description": "The address is vague for a reason. #Banksy",
            "category": "Art",
          },{
            "key": "10",
            "title": "Cash Machine",
            "Address":"Rosebury Avenue, London UK",
            "rating": 4.2,
            "stake":"N/A",
            "stake_time": "N/A",
            "latitude": 51.5262861,
            "longitude":-0.1115988,
            "description": "Makes you rethink all that shopping you did yesterday. And good luck finding it.",
            "category": "Art",
          }
]
