[{
    "key": "1",
    "city": "Tokyo",
    "title": "Rise and Shrine",
    "month": "November 2018",
    "latitude": 35.6735408,
    "longitude": 139.5703032,
    "footprints": [{
        "title": "Asakusa Shrine",
        "Address":"2 Chrome-3-1, Asakusa, Tokyo JP",
        "rating": 4.5,
        "stake":"N/A",
        "stake_time": "N/A",
      },{
        "title": "Top of Park Hyatt",
        "Address":"3-7-1-2, Nishishinjuku, Tokyo JP",
        "rating": 4.9,
        "stake":300,
        "stake_time": "11/04/2018",
      },{
        "title": "Meiji Shrine",
        "Address":"1-1 Yoyogikamizonocho, Shibuya, Tokyo JP",
        "rating": 4.8,
        "stake":200,
        "stake_time": "11/04/2018",
      }],
    "rating": 4.6,
    "duration": 8.3,
  },
{
    "key": "2",
    "city": "Barcelona",
    "title": "Let's Get Gaudi",
    "month": "June 2018",
    "latitude":41.3948976,
    "longitude":2.0787279,
    "footprints": [{
        "title": "La Alcoba Azul",
        "Address":"Carrer de Salomó Ben Adret, 14, Barcelona SP",
        "rating": 4.8,
        "stake":200,
        "stake_time": "06/18/2018",
      },{
        "title": "Sagrada at Night",
        "Address":"Carrer de Mallorca, 401, Barcelona, SP",
        "rating": 4.9,
        "stake":"N/A",
        "stake_time": "N/A",
      }],
    "rating": 4.8,
    "duration": 4.3,
  },
  {
      "key": "3",
      "city": "Buenos Aires",
      "title": "Arts Appreciation",
      "month": "October 2017",
      "latitude":-34.6156625,
      "longitude":-58.5033383,
      "footprints": [{
          "title": "Desnivel",
          "Address":"Defensa 855, C1065 AAO, Buenos Aires, AG",
          "rating": 4.9,
          "stake":100,
          "stake_time": "10/09/2017",
        },{
          "title": "San Telmo Street Art",
          "Address":"Bolívar 970, C1066 AAT, Buenos Aires, AG",
          "rating": 4.6,
          "stake":"N/A",
          "stake_time": "N/A",
        },{
          "title": "La Bomba de Tiempo",
          "Address":"Calle Sarmiento 3131 | Ciudad Cultural Konex, Buenos Aires C1196AAG, AG",
          "rating": 4.8,
          "stake":200,
          "stake_time": "10/09/2018",
        }],
      "rating": 4.7,
      "duration": 5.2,
    },
    {
        "key": "4",
        "city": "Accra",
        "title": "Dining Light",
        "latitude": 5.5913754,
        "longitude": -0.24977,
        "month": "February 2017",
        "footprints": [{
            "title": "Chez Clarisse",
            "Address":"8th Ln, Accra, Ghana",
            "rating": 4.7,
            "stake":"N/A",
            "stake_time": "N/A",
          },{
            "title": "James Town Lighthouse",
            "Address":"Cleland Road, Accra, Ghana",
            "rating": 4.9,
            "stake":100,
            "stake_time": "2/21/2017",
          }],
        "rating": 4.7,
        "duration": 3.2,
      }
]
