[{
    "key": "1",
    "title": "Lunch in the Park",
    "city": "London",
    "latitude": 51.5287718 ,
    "longitude": -0.2416814,
    "footprints": [{
        "title": "Dishoom",
        "Address":"222 Moxon Street, London UK",
        "rating": 4.5,
        "stake":200,
        "stake_time": "12/06/2018",
      },
      {
        "title": "Regents Park",
        "Address":"222 Moxon Street, London UK",
        "rating": 4.5,
        "stake":200,
        "stake_time": "12/06/2018",
      }],
    "rating": 4.5,
    "duration": 1,
  },
  {
      "key": "2",
      "title": "Queen of the East",
      "city": "London",
      "latitude": 51.5287718 ,
      "longitude": -0.2416814,
      "footprints": [{
          "title": "Shoreditch Street Art",
          "Address":"Shoreditch High Street, London UK",
          "rating": 4.8,
          "stake":200,
          "stake_time": "12/06/2018",
        },
        {
          "title": "Museum of Happiness",
          "Address":"55 Leonard Street, London UK",
          "rating": 4.6,
          "stake":"N/A",
          "stake_time": "N/A",
        },
        {
          "title": "Queen of Hoxton",
          "Address":"1 Curtain Road, London UK",
          "rating": 4.6,
          "stake":"N/A",
          "stake_time": "N/A",
        }],
      "rating": 4.6,
      "duration": 1.8,
    },
    {
        "key": "3",
        "title": "Get Dialed Up",
        "city": "London",
        "latitude": 51.5287718 ,
        "longitude": -0.2416814,
        "footprints": [
          {
            "title": "7 Dials Shopping",
            "Address":"Mercer and Earlham Street Intersection, London, UK",
            "rating": 4.8,
            "stake":200,
            "stake_time": "12/06/2018",
          },
          {
            "title": "Cafe Nero",
            "Address":"30 Monmouth Street, London UK",
            "rating": 4.6,
            "stake":"N/A",
            "stake_time": "N/A",
          }],
        "rating": 4.7,
        "duration": 1.5,
      },
    {
        "key": "4",
        "title": "Where's Banksy?",
        "city": "London",
        "latitude": 51.5287718 ,
        "longitude": -0.2416814,
        "footprints": [{
            "title": "Falling Shopper",
            "Address":"Bruton Street, London, UK",
            "rating": 4.9,
            "stake":200,
            "stake_time": "12/06/2018",
          },{
            "title": "Always Fall",
            "Address":"Farrington Road, London UK",
            "rating": 4.6,
            "stake":"N/A",
            "stake_time": "N/A",
          },{
            "title": "Cash Machine",
            "Address":"Rosebury Avenue, London UK",
            "rating": 4.2,
            "stake":"N/A",
            "stake_time": "N/A",
          }],
        "rating": 4.4,
        "duration": 3,
      }
]
